,City,Lat,Lng,Max Temp,Humidity,Cloudiness,Wind Speed,Country,Date
0,rikitea,-23.12,-134.97,74.48,83,99,14.41,PF,1603896385
1,parsabad,39.65,47.92,64.27,48,94,3.4,IR,1603896391
2,port alfred,-33.59,26.89,69.12,75,69,6.64,ZA,1603896391
3,arraial do cabo,-22.97,-42.03,89.6,66,0,5.82,BR,1603896391
4,mataura,-46.19,168.86,46.0,90,89,3.0,NZ,1603896391
5,hermanus,-34.42,19.23,69.01,59,97,8.99,ZA,1603896391
6,cape town,-33.93,18.42,64.0,66,92,10.0,ZA,1603896192
7,geraldton,-28.77,114.6,66.2,72,0,16.11,AU,1603896391
8,pisco,-13.7,-76.22,66.0,82,20,5.82,PE,1603896391
9,acarau,-2.89,-40.12,88.72,53,10,18.75,BR,1603896391
10,puerto ayora,-0.74,-90.35,70.0,88,75,2.24,EC,1603896391
11,uruzgan,32.83,66.0,43.2,55,0,2.59,AF,1603896392
12,dunedin,-45.87,170.5,51.01,80,97,6.29,NZ,1603896376
13,yellowknife,62.46,-114.35,19.4,92,90,3.36,CA,1603896303
14,albany,42.6,-73.97,46.0,90,100,2.57,US,1603896392
15,bryan,30.67,-96.37,42.8,100,90,12.75,US,1603896283
16,avarua,-21.21,-159.78,69.8,88,58,6.93,CK,1603896392
17,atuona,-9.8,-139.03,77.58,75,36,19.13,PF,1603896392
18,bluff,-46.6,168.33,46.0,90,89,3.0,NZ,1603896392
19,new norfolk,-42.78,147.06,51.8,81,90,4.7,AU,1603896392
20,chapais,49.78,-74.85,28.4,86,90,13.87,CA,1603896392
21,cherskiy,68.75,161.3,6.78,94,94,7.92,RU,1603896393
22,esperance,-33.87,121.9,55.4,82,40,9.17,AU,1603896393
23,vila franca do campo,37.72,-25.43,66.2,59,75,6.93,PT,1603896393
24,hofn,64.25,-15.21,42.8,81,75,10.29,IS,1603896393
25,vaini,-21.2,-175.2,71.6,83,20,5.82,TO,1603896393
26,punta arenas,-53.15,-70.92,46.4,52,75,34.45,CL,1603896393
27,provideniya,64.38,-173.3,24.85,89,46,4.97,RU,1603896393
28,menongue,-14.66,17.69,81.72,39,65,6.67,AO,1603896394
29,narsaq,60.92,-46.05,30.2,80,75,2.82,GL,1603896394
30,betong,5.77,101.07,73.56,93,100,1.07,TH,1603896394
31,half moon bay,37.46,-122.43,55.0,71,5,3.0,US,1603896394
32,lebu,-37.62,-73.65,54.5,64,0,9.28,CL,1603896394
33,havelock,34.88,-76.9,73.99,88,1,3.36,US,1603896394
34,chkalovskoye,44.84,133.04,36.66,78,1,9.62,RU,1603896394
35,barrow,71.29,-156.79,24.8,79,75,24.16,US,1603896301
36,bredasdorp,-34.53,20.04,69.01,59,98,8.99,ZA,1603896395
37,port moresby,-9.44,147.18,74.79,93,100,3.0,PG,1603896395
38,tiksi,71.69,128.87,0.34,89,98,22.15,RU,1603896395
39,dolores,-36.31,-57.68,62.64,81,100,12.26,AR,1603896395
40,sukumo,32.93,132.73,58.26,62,70,4.81,JP,1603896395
41,busselton,-33.65,115.33,59.0,46,0,14.38,AU,1603896395
42,aitape,-3.14,142.35,78.69,83,100,3.36,PG,1603896395
43,ushuaia,-54.8,-68.3,37.4,93,40,11.41,AR,1603896291
44,abeche,13.83,20.83,97.05,15,0,1.48,TD,1603896395
45,ratnagiri,16.98,73.3,80.2,76,20,6.35,IN,1603896262
46,sar-e pul,35.83,66.17,32.79,84,0,1.21,AF,1603896396
47,broome,42.25,-75.83,46.99,93,90,6.93,US,1603896396
48,port hedland,-20.32,118.57,75.2,83,1,8.05,AU,1603896396
49,san patricio,28.02,-97.52,50.0,93,90,13.87,US,1603896396
50,severo-kurilsk,50.68,156.12,41.92,87,8,5.64,RU,1603896396
51,hambantota,6.12,81.12,80.22,84,99,15.28,LK,1603896396
52,qaanaaq,77.48,-69.36,11.89,81,99,12.37,GL,1603896396
53,bara,10.37,10.73,95.0,19,0,13.87,NG,1603896396
54,ardatov,55.24,43.1,37.69,77,0,11.52,RU,1603896397
55,havoysund,71.0,24.66,35.6,100,75,5.82,NO,1603896397
56,souillac,-20.52,57.52,75.0,71,100,5.99,MU,1603896397
57,sitka,57.05,-135.33,44.6,81,90,9.17,US,1603896397
58,kodiak,57.79,-152.41,32.0,77,75,5.82,US,1603896324
59,kamenka,51.32,42.77,39.99,40,0,10.47,RU,1603896397
60,ponta do sol,32.67,-17.1,71.6,60,40,11.41,PT,1603896397
61,porto belo,-27.16,-48.55,84.99,41,0,7.0,BR,1603896397
62,saint-philippe,-21.36,55.77,75.2,78,20,20.8,RE,1603896397
63,daru,-9.08,143.21,76.12,89,92,2.1,PG,1603896398
64,sakti,22.03,82.97,73.35,55,0,1.48,IN,1603896398
65,dikson,73.51,80.55,4.03,93,15,21.61,RU,1603896398
66,tingo maria,-9.29,-76.01,78.8,74,75,2.24,PE,1603896398
67,rincon,32.3,-81.24,82.99,69,75,10.29,US,1603896398
68,mocuba,-16.84,36.99,86.13,45,46,11.99,MZ,1603896398
69,el transito,13.35,-88.35,84.22,68,53,1.88,SV,1603896398
70,butaritari,3.07,172.79,80.69,67,24,1.61,KI,1603896399
71,harper,4.38,-7.72,80.98,80,82,7.34,LR,1603896399
72,usinsk,65.99,57.53,35.17,98,100,16.51,RU,1603896399
73,hirara,24.8,125.28,77.68,77,29,17.43,JP,1603896399
74,kapaa,22.08,-159.32,76.53,70,10,4.76,US,1603896399
75,kaitangata,-46.28,169.85,51.01,84,92,10.0,NZ,1603896399
76,oildale,35.42,-119.02,50.0,37,1,1.74,US,1603896399
77,east london,-33.02,27.91,70.68,74,90,5.55,ZA,1603896399
78,bethel,41.37,-73.41,46.0,89,100,1.99,US,1603896400
79,houlton,46.13,-67.84,30.2,54,75,4.7,US,1603896400
80,kahta,37.79,38.62,68.11,24,70,2.8,TR,1603896400
81,port elizabeth,-33.92,25.57,69.8,73,20,11.41,ZA,1603896400
82,tasiilaq,65.61,-37.64,35.6,29,75,21.92,GL,1603896400
83,cabo san lucas,22.89,-109.91,72.0,61,0,11.01,MX,1603896400
84,okhotsk,59.38,143.3,29.57,89,74,7.9,RU,1603896400
85,veraval,20.9,70.37,81.27,63,0,7.16,IN,1603896400
86,zhigalovo,54.81,105.16,30.27,95,97,3.31,RU,1603896400
87,charters towers,-20.1,146.27,73.54,76,0,3.74,AU,1603896401
88,leirvik,59.78,5.5,46.99,93,75,16.11,NO,1603896401
89,kyabe,9.45,18.94,93.63,34,0,4.81,TD,1603896401
90,hobart,-42.88,147.33,51.8,81,90,4.7,AU,1603896110
91,comodoro rivadavia,-45.87,-67.5,57.2,35,40,14.99,AR,1603896401
92,acajutla,13.59,-89.83,75.99,93,44,1.01,SV,1603896153
93,christchurch,-43.53,172.63,53.01,87,100,6.93,NZ,1603896137
94,fort-de-france,14.61,-61.07,80.6,83,75,13.87,MQ,1603896401
95,viseu,40.66,-7.91,64.99,74,54,5.01,PT,1603896401
96,baracoa,20.35,-74.5,83.21,78,55,13.42,CU,1603896401
97,arman,59.7,150.17,30.31,85,6,3.98,RU,1603896402
98,kieta,-6.22,155.63,79.11,79,100,4.12,PG,1603896402
99,teknaf,20.86,92.31,79.11,84,97,6.82,BD,1603896402
100,port blair,11.67,92.75,80.8,77,99,2.59,IN,1603896402
101,saskylakh,71.92,114.08,5.16,91,100,13.65,RU,1603896402
102,puerto madero,14.72,-92.42,78.8,94,20,3.51,MX,1603896402
103,ikongo,-21.88,47.43,71.42,82,54,3.29,MG,1603896402
104,alappuzha,9.49,76.33,75.0,88,100,5.01,IN,1603896402
105,changji,44.02,87.32,48.2,42,0,6.71,CN,1603896403
106,ribeira grande,38.52,-28.7,68.0,64,20,9.17,PT,1603896403
107,phalaborwa,-23.94,31.14,94.53,16,12,11.14,ZA,1603896403
108,hilo,19.73,-155.09,71.01,86,54,1.99,US,1603896142
109,tulun,54.56,100.58,36.68,81,100,11.52,RU,1603896403
110,freeport,40.66,-73.58,55.4,93,90,5.57,US,1603896369
111,kloulklubed,7.04,134.26,84.36,73,42,11.68,PW,1603896403
112,pevek,69.7,170.31,19.94,93,100,9.64,RU,1603896403
113,petropavlovsk-kamchatskiy,53.05,158.65,35.6,100,90,6.71,RU,1603896403
114,clyde river,70.47,-68.59,14.0,78,75,18.34,CA,1603896403
115,khatanga,71.97,102.5,-3.03,91,46,3.74,RU,1603896404
116,port lincoln,-34.73,135.87,61.77,62,76,14.79,AU,1603896404
117,atar,20.52,-13.05,94.98,13,100,14.12,MR,1603896404
118,chokurdakh,70.63,147.92,3.51,95,99,7.78,RU,1603896404
119,kavieng,-2.57,150.8,82.72,72,71,4.25,PG,1603896404
120,ostrovnoy,68.05,39.51,38.62,91,100,8.52,RU,1603896404
121,alofi,-19.06,-169.92,71.6,83,46,11.41,NU,1603896404
122,hithadhoo,-0.6,73.08,83.79,72,26,12.57,MV,1603896404
123,faya,18.39,42.45,71.6,14,20,11.41,SA,1603896405
124,bouna,9.27,-3.0,94.53,22,0,5.06,CI,1603896405
125,upernavik,72.79,-56.15,11.68,80,13,6.6,GL,1603896405
126,hualmay,-11.1,-77.61,68.27,69,77,9.17,PE,1603896405
127,bandar,2.05,99.75,75.7,84,95,2.37,ID,1603896405
128,tananger,58.93,5.6,51.8,76,75,23.04,NO,1603896405
129,sobolevo,54.43,31.9,45.9,85,2,8.12,RU,1603896405
130,bajil,15.06,43.29,88.18,39,0,7.4,YE,1603896405
131,yerbogachen,61.28,108.01,17.73,89,77,11.3,RU,1603896405
132,thompson,55.74,-97.86,10.4,72,75,6.93,CA,1603896405
133,contamana,-7.33,-75.02,93.94,44,96,4.88,PE,1603896406
134,lorengau,-2.02,147.27,81.07,77,84,2.33,PG,1603896406
135,ekhabi,53.51,142.97,36.21,92,100,1.3,RU,1603896406
136,sorong,-0.88,131.25,74.73,91,100,7.54,ID,1603896406
137,bathsheba,13.22,-59.52,84.31,75,90,21.5,BB,1603896406
138,ribeira brava,32.65,-17.07,71.6,60,40,11.41,PT,1603896329
139,ayna,-12.65,-73.92,64.4,17,0,4.7,PE,1603896406
140,russell,32.35,-85.2,75.2,88,90,5.82,US,1603896406
141,husavik,66.04,-17.34,41.0,75,75,16.11,IS,1603896335
142,yanam,16.73,82.22,78.64,69,55,5.03,IN,1603896407
143,volchikha,52.03,80.38,28.44,97,100,13.18,RU,1603896407
144,samarai,-10.62,150.67,80.49,85,100,10.16,PG,1603896407
145,benghazi,32.12,20.07,72.12,60,10,18.66,LY,1603896407
146,vardo,70.37,31.11,39.2,86,75,8.05,NO,1603896407
147,vila velha,-20.33,-40.29,91.4,63,75,10.29,BR,1603896186
148,comendador,18.88,-71.7,82.87,61,2,0.98,DO,1603896407
149,kropotkin,45.44,40.58,64.0,51,0,13.67,RU,1603896407
150,constitucion,-35.33,-72.42,58.44,59,0,12.37,CL,1603896407
151,semnan,35.57,53.4,59.83,33,0,0.49,IR,1603896407
152,rorvik,64.86,11.24,46.4,70,0,5.82,NO,1603896407
153,arroio grande,-32.24,-53.09,70.14,80,100,9.33,BR,1603896407
154,ascension,30.22,-90.9,80.6,88,90,4.7,US,1603896408
155,saint-denis,48.92,2.33,59.0,67,90,16.11,FR,1603896408
156,jamestown,42.1,-79.24,45.0,100,90,6.93,US,1603896201
157,chhindwara,22.07,78.93,70.29,56,36,1.88,IN,1603896237
158,huilong,31.81,121.66,66.0,89,99,11.68,CN,1603896408
159,bom jesus da lapa,-13.26,-43.42,90.7,42,70,5.48,BR,1603896408
160,sao joao da barra,-21.64,-41.05,87.8,58,20,4.7,BR,1603896408
161,ashbourne,53.51,-6.43,48.0,81,40,11.41,IE,1603896408
162,srednekolymsk,67.45,153.68,4.73,94,75,5.14,RU,1603896408
163,mount gambier,-37.83,140.77,44.6,100,63,8.05,AU,1603896409
164,evensk,61.95,159.23,23.88,81,0,5.46,RU,1603896409
165,hobyo,5.35,48.53,80.94,73,1,8.43,SO,1603896409
166,kommunar,59.62,30.39,50.0,76,75,4.47,RU,1603896409
167,manuk mangkaw,4.8,119.85,83.53,82,95,9.28,PH,1603896409
168,handlova,48.73,18.76,62.6,63,40,6.93,SK,1603896409
169,atambua,-9.11,124.89,76.17,84,67,3.65,ID,1603896410
170,henties bay,-22.12,14.28,63.25,65,1,10.42,NA,1603896410
171,chuy,-33.7,-53.46,68.4,86,99,6.96,UY,1603896410
172,nikolskoye,59.7,30.79,50.0,76,75,4.47,RU,1603896410
173,saint george,37.1,-113.58,42.8,28,1,5.82,US,1603896410
174,mount hagen,-5.86,144.23,58.19,92,79,2.66,PG,1603896410
175,mar del plata,-38.0,-57.56,64.99,67,90,11.41,AR,1603896375
176,ixtepec,16.58,-95.1,83.77,67,61,4.12,MX,1603896410
177,san antonio,29.42,-98.49,45.0,75,75,11.41,US,1603896130
178,booue,-0.09,11.94,73.42,93,100,1.52,GA,1603896410
179,brindisi,40.58,17.67,66.2,77,20,17.22,IT,1603896411
180,rio grande,-32.03,-52.1,69.01,90,89,5.99,BR,1603896308
181,baykit,61.67,96.37,22.78,94,100,14.97,RU,1603896411
182,huarmey,-10.07,-78.15,68.94,68,83,11.12,PE,1603896411
183,nizwa,22.93,57.53,74.08,23,0,5.03,OM,1603896411
184,tuatapere,-46.13,167.68,46.0,90,98,3.0,NZ,1603896411
185,matara,5.95,80.54,79.16,84,98,7.58,LK,1603896411
186,riyadh,24.69,46.72,84.2,17,0,4.7,SA,1603896411
187,san jose,37.34,-121.89,55.99,39,1,5.82,US,1603896113
188,katsuura,35.13,140.3,66.99,72,75,8.05,JP,1603896412
189,watertown,42.37,-71.18,48.2,87,90,6.93,US,1603896412
190,piotrkow trybunalski,51.41,19.7,57.0,10,55,55.99,PL,1603896412
191,umtata,-31.59,28.78,80.6,57,0,13.87,ZA,1603896412
192,ust-kulom,61.69,53.69,34.92,94,100,6.71,RU,1603896412
193,kanniyakumari,8.08,77.57,80.83,81,39,6.24,IN,1603896412
194,sistranda,63.73,8.83,46.4,70,40,13.87,NO,1603896412
195,mama,58.31,112.9,15.37,91,53,3.71,RU,1603896412
196,chernyshevskiy,63.01,112.47,8.1,96,72,6.76,RU,1603896412
197,adeje,28.12,-16.73,75.2,53,40,17.22,ES,1603896413
198,nishihara,26.18,127.76,75.2,78,20,4.7,JP,1603896413
199,odesskoye,54.21,72.97,27.07,95,96,11.97,RU,1603896413
200,synevyr,48.49,23.63,43.0,87,90,7.0,UA,1603896413
201,nemuro,43.32,145.57,52.27,72,73,16.28,JP,1603896413
202,yuancheng,36.65,107.79,44.64,65,0,6.17,CN,1603896413
203,vostok,46.49,135.88,26.53,100,67,2.01,RU,1603896413
204,cidreira,-30.18,-50.21,68.79,78,97,14.97,BR,1603896413
205,tuktoyaktuk,69.45,-133.04,15.8,92,90,14.99,CA,1603896413
206,marzuq,14.4,46.47,73.56,19,0,7.76,YE,1603896413
207,pochutla,15.74,-96.47,80.01,78,5,0.78,MX,1603896413
208,monrovia,6.3,-10.8,89.6,66,75,5.82,LR,1603896410
209,carnarvon,-24.87,113.63,71.6,88,0,23.04,AU,1603896413
210,walvis bay,-22.96,14.51,64.4,68,12,11.41,NA,1603896414
211,puteyets,65.17,57.09,36.93,96,100,12.06,RU,1603896414
212,lake havasu city,34.48,-114.32,52.0,20,1,3.36,US,1603896414
213,linxia,35.6,103.21,38.57,76,0,0.67,CN,1603896279
214,acapulco,16.86,-99.89,78.8,88,75,5.82,MX,1603896147
215,mahebourg,-20.41,57.7,75.0,71,97,5.99,MU,1603896414
216,lagoa,39.05,-27.98,63.39,70,3,10.83,PT,1603896414
217,moerai,-22.43,-151.33,77.29,85,100,24.05,PF,1603896415
218,vestmannaeyjar,63.44,-20.27,44.74,70,93,23.67,IS,1603896415
219,eregli,37.51,34.05,64.85,29,22,4.59,TR,1603896415
220,georgetown,5.41,100.34,82.4,78,20,6.17,MY,1603896311
221,kruisfontein,-34.0,24.73,69.01,74,97,7.0,ZA,1603896415
222,znamensk,48.58,45.73,45.1,55,43,14.38,RU,1603896415
223,seoul,37.57,126.98,51.8,39,1,9.04,KR,1603896341
224,torbay,47.67,-52.73,39.99,86,75,11.41,CA,1603896188
225,olafsvik,64.89,-23.71,41.67,67,0,21.0,IS,1603896415
226,lichinga,-13.31,35.24,69.93,63,93,3.24,MZ,1603896415
227,grindavik,63.84,-22.43,42.8,56,0,21.92,IS,1603896415
228,yuncheng,35.02,110.99,51.13,85,64,3.42,CN,1603896416
229,walla walla,46.06,-118.34,48.0,79,0,4.0,US,1603896416
230,ingham,42.6,-84.38,41.0,80,1,6.93,US,1603896416
231,erenhot,43.65,111.98,42.39,47,100,7.61,CN,1603896416
232,kawalu,-7.38,108.21,72.93,92,99,1.39,ID,1603896416
233,pimentel,-6.84,-79.93,68.0,72,40,13.87,PE,1603896416
234,cabedelo,-6.98,-34.83,86.0,55,75,11.41,BR,1603896416
235,magdagachi,53.45,125.8,19.13,96,47,5.23,RU,1603896416
236,kletskaya,49.31,43.06,45.0,41,81,4.0,RU,1603896416
237,abu samrah,35.3,37.18,75.85,28,68,3.56,SY,1603896416
238,bonthe,7.53,-12.51,86.4,64,92,11.25,SL,1603896417
239,lang son,21.83,106.73,70.5,87,100,9.37,VN,1603896417
240,alamosa,37.47,-105.87,15.8,92,20,6.98,US,1603896417
241,elkhart,41.58,-85.83,41.0,76,0,3.0,US,1603896393
242,ongandjera,-17.88,15.07,100.04,10,37,4.92,NA,1603896417
243,saldanha,-33.01,17.94,61.59,69,100,14.47,ZA,1603896417
244,chumikan,54.72,135.31,35.69,95,100,10.6,RU,1603896417
245,valmiera,57.54,25.43,48.0,92,100,1.01,LV,1603896369
246,ahipara,-35.17,173.17,59.67,89,32,3.11,NZ,1603896417
247,puerto carreno,6.19,-67.49,86.31,67,100,9.48,CO,1603896417
248,victoria,22.29,114.16,73.99,86,100,3.0,HK,1603896418
249,lagos,6.58,3.75,87.8,70,75,4.7,NG,1603896164
250,hofu,34.05,131.57,55.99,77,2,5.08,JP,1603896418
251,belem de sao francisco,-8.75,-38.97,95.49,32,56,7.9,BR,1603896418
252,esmeralda,21.85,-78.12,84.87,72,18,14.63,CU,1603896418
253,sesori,13.72,-88.37,81.9,75,90,0.72,SV,1603896418
254,zambezi,-13.54,23.1,90.66,25,79,7.31,ZM,1603896418
255,suntar,62.14,117.63,12.92,91,35,3.91,RU,1603896418
256,lavrentiya,65.58,-171.0,24.85,88,0,6.87,RU,1603896418
257,portland,45.52,-122.68,42.01,93,90,1.43,US,1603896196
258,richards bay,-28.78,32.04,84.36,56,0,16.53,ZA,1603896419
259,saint-marc,19.11,-72.69,83.82,67,13,0.69,HT,1603896419
260,namibe,-15.2,12.15,72.99,77,81,12.19,AO,1603896419
261,algiers,36.75,3.04,71.6,56,0,10.29,DZ,1603896419
262,necochea,-38.55,-58.74,62.01,60,100,1.99,AR,1603896419
263,dawei,14.08,98.2,76.62,87,100,2.62,MM,1603896419
264,castro,-24.79,-50.01,78.39,35,0,9.46,BR,1603896300
265,esmeraldas,-19.76,-44.31,87.8,45,75,10.29,BR,1603896419
266,airai,-8.93,125.41,61.65,99,70,2.3,TL,1603896420
267,mangrol,21.12,70.12,81.7,62,0,9.75,IN,1603896420
268,komsomolskiy,40.43,71.72,46.4,36,99,4.7,UZ,1603896420
269,porto walter,-8.27,-72.74,92.98,47,97,5.3,BR,1603896420
270,ulaanbaatar,47.91,106.88,24.8,53,0,4.47,MN,1603896420
271,hauge,58.34,6.28,52.0,83,100,18.59,NO,1603896420
272,nuevo progreso,23.17,-97.95,57.99,58,58,5.99,MX,1603896368
273,doha,25.29,51.53,86.0,51,20,11.41,QA,1603896370
274,puerto narino,-3.77,-70.38,94.24,51,83,1.45,CO,1603896421
275,roma,43.21,-75.46,45.0,93,90,3.76,US,1603896125
276,touros,-5.2,-35.46,86.0,62,75,19.46,BR,1603896421
277,praia da vitoria,38.73,-27.07,69.01,64,75,11.74,PT,1603896421
278,auki,-8.77,160.7,78.55,85,96,4.16,SB,1603896421
279,summerside,46.4,-63.79,39.0,70,99,1.99,CA,1603896421
280,yulara,-25.24,130.99,73.4,16,0,6.93,AU,1603896421
281,kaabong,3.48,34.15,75.15,53,43,16.13,UG,1603896421
282,elk river,45.3,-93.57,34.0,81,31,11.25,US,1603896396
283,sembe,1.65,14.58,81.99,73,87,1.07,CG,1603896422
284,lasa,46.62,10.7,59.0,54,0,5.82,IT,1603896422
285,grafton,42.21,-71.69,44.01,93,90,5.82,US,1603896422
286,brownwood,31.71,-98.99,35.6,83,90,12.5,US,1603896422
287,icatu,-2.78,-44.07,89.6,59,75,16.11,BR,1603896422
288,sao filipe,14.9,-24.5,82.85,66,100,9.6,CV,1603896422
289,waycross,31.21,-82.35,78.01,83,90,8.01,US,1603896422
290,copiapo,-27.37,-70.33,77.76,27,0,9.06,CL,1603896270
291,agirish,61.92,63.02,29.77,99,100,7.96,RU,1603896423
292,rexburg,43.83,-111.79,19.4,85,1,4.7,US,1603896423
293,deer lake,49.17,-57.43,33.8,69,40,9.17,CA,1603896423
294,le mans,48.0,0.2,59.0,67,90,13.87,FR,1603896423
295,rupert,42.62,-113.68,39.0,57,0,5.99,US,1603896423
296,muros,42.78,-9.06,63.0,72,93,8.01,ES,1603896423
297,ponta delgada,37.73,-25.67,66.2,59,75,6.93,PT,1603896395
298,dubna,56.73,37.17,45.45,78,60,8.25,RU,1603896424
299,ko samui,9.54,99.94,83.3,74,100,14.25,TH,1603896424
300,san rafael,-34.62,-68.33,61.23,32,0,5.01,AR,1603896424
301,iqaluit,63.75,-68.51,17.6,67,90,11.41,CA,1603896424
302,nhulunbuy,-12.23,136.77,78.8,83,4,3.36,AU,1603896424
303,zanjan,36.67,48.48,66.2,22,0,4.7,IR,1603896145
304,alamor,-4.02,-80.02,78.8,73,20,4.7,EC,1603896424
305,karratha,-20.74,116.85,70.79,90,0,4.05,AU,1603896379
306,shasta lake,40.68,-122.37,53.01,36,0,1.01,US,1603896424
307,nongstoin,25.52,91.27,62.24,94,0,3.58,IN,1603896424
308,south river,40.45,-74.39,55.0,95,100,4.27,US,1603896424
309,kirovskiy,45.09,133.51,34.32,84,49,5.06,RU,1603896425
310,chittaurgarh,24.88,74.63,72.9,25,0,1.57,IN,1603896425
311,marawi,8.0,124.29,75.0,88,51,18.99,PH,1603896425
312,camacari,-12.7,-38.32,86.0,70,40,18.34,BR,1603896425
313,krasnik,50.92,22.23,57.0,100,90,5.82,PL,1603896425
314,palmer,42.16,-72.33,46.0,93,90,3.36,US,1603896425
315,xuddur,4.12,43.89,78.73,70,97,7.94,SO,1603896425
316,kanungu,-0.96,29.79,70.2,84,63,2.42,UG,1603896425
317,santa isabel do rio negro,-0.41,-65.02,95.56,50,79,2.53,BR,1603896426
318,inhambane,-23.86,35.38,76.98,74,0,11.74,MZ,1603896426
319,hoddesdon,51.76,-0.01,54.0,76,100,12.75,GB,1603896426
320,dingle,11.0,122.67,77.47,85,93,3.29,PH,1603896426
321,kavaratti,10.57,72.64,82.29,75,1,6.46,IN,1603896426
322,lewistown,40.6,-77.57,51.01,100,90,4.16,US,1603896426
323,camacha,33.08,-16.33,69.8,68,20,10.29,PT,1603896426
324,turukhansk,65.82,87.98,11.53,91,100,15.86,RU,1603896426
325,leshukonskoye,64.9,45.76,42.62,93,100,13.58,RU,1603896426
326,carutapera,-1.2,-46.02,89.28,56,50,10.76,BR,1603896426
327,grand gaube,-20.01,57.66,75.0,71,97,5.99,MU,1603896427
328,miles city,46.41,-105.84,37.0,81,49,4.0,US,1603896427
329,sinnai,39.3,9.2,68.0,49,20,17.22,IT,1603896427
330,koslan,63.46,48.9,39.99,94,100,12.15,RU,1603896427
331,terracina,41.29,13.22,68.0,45,0,9.17,IT,1603896427
332,tebingtinggi,3.33,99.16,82.4,94,40,3.36,ID,1603896427
333,penzance,50.12,-5.54,50.0,93,20,19.46,GB,1603896427
334,urumqi,43.8,87.6,48.2,42,0,6.71,CN,1603896427
335,pontalina,-17.52,-49.45,80.49,72,31,15.73,BR,1603896427
336,melilla,35.29,-2.94,69.8,52,20,6.93,ES,1603896427
337,nanortalik,60.14,-45.24,32.36,96,100,11.18,GL,1603896427
338,skibotn,69.39,20.27,35.6,81,0,2.24,NO,1603896428
339,el bagre,7.59,-74.81,87.13,66,66,1.25,CO,1603896428
340,ibra,22.69,58.53,71.24,29,0,4.21,OM,1603896428
341,asau,46.43,26.4,54.0,85,16,2.48,RO,1603896428
342,tigil,57.8,158.67,31.82,93,0,4.94,RU,1603896428
343,macheng,31.18,115.03,61.95,77,96,2.86,CN,1603896428
344,chhagalnaiya,23.03,91.51,77.36,83,0,2.89,BD,1603896428
345,zyryanka,65.75,150.85,3.49,91,97,0.74,RU,1603896428
346,eschwege,51.18,10.07,55.99,84,59,4.0,DE,1603896428
347,faanui,-16.48,-151.75,80.06,79,80,18.1,PF,1603896429
348,aklavik,68.22,-135.01,12.2,85,90,5.82,CA,1603896130
349,rayagada,19.17,83.42,72.12,66,1,2.59,IN,1603896429
350,wiener neudorf,48.08,16.32,61.0,67,0,3.36,AT,1603896337
351,maua,-23.67,-46.46,84.2,32,0,13.87,BR,1603896211
352,norman wells,65.28,-126.83,12.2,92,90,2.24,CA,1603896429
353,ostersund,63.18,14.64,43.0,81,90,11.41,SE,1603896429
354,brigantine,39.41,-74.36,64.99,88,90,8.05,US,1603896429
355,cayenne,4.93,-52.33,89.6,59,20,10.29,GF,1603896429
356,mehamn,71.04,27.85,39.2,80,40,16.11,NO,1603896429
357,dongzhen,22.38,110.94,70.12,88,98,6.02,CN,1603896429
358,la ronge,55.1,-105.28,21.2,85,90,4.7,CA,1603896430
359,port-cartier,50.03,-66.87,27.0,92,75,7.36,CA,1603896430
360,sibolga,1.74,98.78,78.04,77,100,2.24,ID,1603896430
361,ilulissat,69.22,-51.1,17.6,48,75,8.05,GL,1603896430
362,trinidad,-14.83,-64.9,94.01,44,71,10.22,BO,1603896345
363,fortuna,40.6,-124.16,44.6,70,1,6.93,US,1603896430
364,vila,42.03,-8.16,57.99,79,98,5.99,PT,1603896430
365,mumford,5.26,-0.76,80.58,81,51,13.49,GH,1603896430
366,carbonia,39.17,8.52,68.0,59,40,13.87,IT,1603896431
367,naduvattam,11.48,76.57,54.46,100,9,2.57,IN,1603896431
368,hauterive,46.09,3.45,59.0,62,75,17.22,FR,1603896431
369,pingliang,35.54,106.69,43.07,77,0,3.89,CN,1603896431
370,mahajanga,-15.72,46.32,84.2,70,20,11.41,MG,1603896431
371,lompoc,34.64,-120.46,48.2,49,1,9.17,US,1603896408
372,oranjemund,-28.55,16.43,63.09,68,83,14.41,NA,1603896431
373,kununurra,-15.77,128.73,80.6,83,66,1.12,AU,1603896431
374,cap malheureux,-19.98,57.61,75.0,71,96,5.99,MU,1603896431
375,yeppoon,-23.13,150.73,64.4,93,40,5.64,AU,1603896431
376,ust-karsk,52.7,118.81,25.3,83,0,1.99,RU,1603896431
377,lobito,-12.35,13.55,78.96,74,0,8.75,AO,1603896431
378,luderitz,-26.65,15.16,64.09,63,19,21.0,NA,1603896432
379,northam,51.03,-4.22,53.01,80,100,17.0,GB,1603896432
380,ler,8.3,30.14,86.68,55,23,3.74,SS,1603896432
381,qaqortoq,60.72,-46.03,30.2,80,75,3.29,GL,1603896432
382,hammerfest,70.66,23.68,35.6,100,75,5.82,NO,1603896432
383,westport,41.14,-73.36,50.0,93,90,9.17,US,1603896432
384,alyangula,-13.85,136.42,78.8,83,75,4.7,AU,1603896432
385,bow island,49.87,-111.37,37.4,86,90,10.29,CA,1603896302
386,culfa,38.96,45.63,64.4,42,20,4.7,AZ,1603896432
387,kirkuk,35.47,44.39,72.54,19,100,4.52,IQ,1603896432
388,coihaique,-45.58,-72.07,48.2,49,40,8.05,CL,1603896433
389,angra dos reis,-23.01,-44.32,95.0,32,0,8.05,BR,1603896433
390,safaga,26.73,33.94,89.6,46,0,3.36,EG,1603896433
391,kudahuvadhoo,2.67,72.89,83.61,75,84,12.93,MV,1603896433
392,belaya gora,68.53,146.42,2.17,93,100,1.52,RU,1603896433
393,bengkulu,-3.8,102.27,76.57,86,100,3.56,ID,1603896433
394,mala,-12.66,-76.63,69.71,65,69,8.12,PE,1603896434
395,mae hong son,19.3,97.97,73.11,83,99,1.57,TH,1603896212
396,palu,-0.89,119.87,77.0,78,100,2.53,ID,1603896434
397,sakakah,29.97,40.21,91.4,8,0,4.94,SA,1603896434
398,sagua la grande,22.81,-80.08,83.57,76,34,15.35,CU,1603896434
399,los llanos de aridane,28.66,-17.92,75.2,53,90,5.82,ES,1603896434
400,asyut,27.18,31.18,86.0,42,0,13.87,EG,1603896434
401,itaituba,-4.28,-55.98,87.8,66,40,4.7,BR,1603896434
402,dicabisagan,17.08,122.42,79.3,83,98,3.04,PH,1603896434
403,siilinjarvi,63.08,27.67,46.4,87,90,10.29,FI,1603896435
404,beyneu,45.32,55.2,42.71,59,0,11.86,KZ,1603896435
405,san andres,12.58,-81.7,83.64,79,92,10.45,CO,1603896435
406,klaksvik,62.23,-6.59,46.4,81,75,19.46,FO,1603896435
407,lake city,30.19,-82.64,82.99,74,1,8.05,US,1603896335
408,pangai,-19.8,-174.35,74.01,74,47,21.47,TO,1603896435
409,tulskiy,44.51,40.18,63.88,54,0,4.92,RU,1603896435
410,imbituba,-28.24,-48.67,84.2,32,20,3.36,BR,1603896186
411,itarema,-2.92,-39.92,87.91,55,3,18.03,BR,1603896435
412,goderich,43.75,-81.72,44.01,78,34,20.54,CA,1603896303
413,aventura,25.96,-80.14,86.0,79,75,10.29,US,1603896283
414,ampanihy,-24.7,44.75,75.92,64,0,19.77,MG,1603896435
415,baturaja,-4.13,104.17,74.8,93,99,1.48,ID,1603896435
416,kaduna,10.52,7.44,90.82,21,0,6.62,NG,1603896436
417,villazon,-22.09,-65.59,58.21,24,0,10.69,BO,1603896436
418,san cristobal,7.77,-72.22,81.95,53,90,3.58,VE,1603896178
419,tandalti,13.02,31.87,100.42,15,27,4.83,SD,1603896436
420,codrington,-38.27,141.97,49.48,92,41,5.32,AU,1603896436
421,berlevag,70.86,29.09,39.2,86,20,13.87,NO,1603896436
422,yumen,40.28,97.2,39.65,63,0,6.78,CN,1603896436
423,campbell river,50.02,-125.24,45.0,100,90,2.24,CA,1603896175
424,manta,-0.95,-80.73,78.8,74,40,9.17,EC,1603896279
425,ugoofaaru,5.67,73.0,83.03,72,89,7.38,MV,1603896436
426,tucurui,-3.77,-49.67,96.26,41,30,4.38,BR,1603896417
427,bambanglipuro,-7.95,110.28,78.04,87,100,5.88,ID,1603896436
428,nome,64.5,-165.41,27.75,92,62,6.22,US,1603896436
429,saint-georges,12.06,-61.75,84.31,73,100,10.85,GD,1603896437
430,mananara,-16.17,49.77,74.64,76,96,7.0,MG,1603896437
431,antalaha,-14.9,50.28,76.71,76,0,11.41,MG,1603896437
432,meulaboh,4.14,96.13,78.53,82,100,0.85,ID,1603896437
433,shimoda,34.67,138.95,57.0,70,96,1.99,JP,1603896437
434,barguzin,53.62,109.62,29.48,90,64,7.63,RU,1603896437
435,shubarkuduk,49.14,56.49,36.57,76,32,1.77,KZ,1603896437
436,kushima,31.46,131.23,64.44,83,44,3.89,JP,1603896437
437,rangapara,26.82,92.65,72.19,77,0,3.11,IN,1603896438
438,poum,-20.23,164.02,75.85,80,38,20.31,NC,1603896438
439,flinders,-34.58,150.86,60.01,87,100,1.01,AU,1603896438
440,santa cruz,-17.8,-63.17,84.2,58,40,23.04,BO,1603896213
441,kharovsk,59.96,40.19,46.56,85,100,10.02,RU,1603896438
442,syracuse,37.09,15.28,71.6,46,20,11.41,IT,1603896438
443,yar-sale,66.83,70.83,4.1,89,13,9.95,RU,1603896438
444,caninde de sao francisco,-9.66,-37.79,86.0,58,40,3.36,BR,1603896438
445,aykhal,66.0,111.5,-10.39,88,0,2.68,RU,1603896438
446,villa carlos paz,-31.42,-64.5,69.8,52,50,28.86,AR,1603896438
447,cururupu,-1.83,-44.87,90.86,50,83,8.14,BR,1603896438
448,longyearbyen,78.22,15.64,32.0,96,75,8.05,SJ,1603896439
449,zubtsov,56.18,34.59,45.68,82,61,8.14,RU,1603896439
450,coquimbo,-29.95,-71.34,60.8,67,0,11.41,CL,1603896439
451,bahile,10.0,118.79,78.37,79,83,3.85,PH,1603896439
452,stellenbosch,-33.93,18.87,64.0,64,80,8.99,ZA,1603896439
453,bardiyah,31.76,25.09,79.0,44,1,14.7,LY,1603896439
454,tacuarembo,-31.73,-55.98,74.05,64,24,2.21,UY,1603896439
455,hare bay,48.85,-54.01,32.0,82,40,13.87,CA,1603896439
456,tromso,69.65,18.96,35.6,83,0,2.24,NO,1603896406
457,ploemeur,47.73,-3.43,57.99,82,100,23.04,FR,1603896439
458,new amsterdam,6.25,-57.52,91.72,51,48,6.49,GY,1603896440
459,avera,33.19,-82.53,75.2,77,90,6.93,US,1603896440
460,kodinar,20.79,70.7,80.08,56,0,6.15,IN,1603896440
461,banda aceh,5.56,95.32,81.09,76,100,12.21,ID,1603896440
462,mecca,21.43,39.83,82.74,51,0,5.82,SA,1603896382
463,hay river,60.82,-115.8,10.4,92,20,4.7,CA,1603896440
464,abbeville,50.1,1.83,55.99,78,100,18.34,FR,1603896440
465,bilibino,68.05,166.44,1.47,86,92,0.89,RU,1603896441
466,port hardy,50.7,-127.42,48.2,100,90,6.93,CA,1603896441
467,kenai,60.55,-151.26,19.4,92,1,5.82,US,1603896441
468,biak,-0.91,122.88,77.77,81,33,3.09,ID,1603896441
469,itoman,26.12,127.67,75.2,69,20,8.05,JP,1603896441
470,luena,-11.78,19.92,81.37,48,54,5.95,AO,1603896441
471,aiken,33.58,-81.6,75.0,100,90,6.93,US,1603896254
472,elizabeth city,36.29,-76.25,69.8,88,90,9.17,US,1603896441
473,arlit,18.74,7.39,93.85,9,0,7.92,NE,1603896441
474,saint-pierre,-21.34,55.48,75.2,78,20,20.8,RE,1603896441
475,ban nahin,18.24,104.21,75.96,72,100,8.95,LA,1603896442
476,flin flon,54.77,-101.86,15.8,72,90,8.05,CA,1603896442
477,lima,-12.04,-77.03,66.0,82,90,5.82,PE,1603896255
478,ossora,59.24,163.07,30.58,92,2,3.2,RU,1603896442
479,san pedro,14.35,121.02,79.0,94,75,3.36,PH,1603896442
480,makakilo city,21.35,-158.09,71.6,94,1,3.36,US,1603896442
481,talnakh,69.49,88.4,-2.51,76,0,4.23,RU,1603896442
482,mamallapuram,12.63,80.17,80.6,78,40,8.05,IN,1603896442
483,wanning,18.8,110.4,78.42,87,100,19.62,CN,1603896442
484,gopalpur,19.27,84.92,77.65,54,0,4.54,IN,1603896442
485,tessalit,20.2,1.01,95.16,10,0,10.6,ML,1603896443
486,carleton place,45.13,-76.15,39.99,96,73,1.01,CA,1603896291
487,marystown,47.17,-55.15,40.78,68,9,13.98,CA,1603896443
488,selaphum,16.03,103.94,70.75,94,100,17.6,TH,1603896443
489,solnechnyy,50.72,136.63,31.08,97,100,4.59,RU,1603896443
490,kyren,51.68,102.14,35.13,76,42,4.99,RU,1603896443
491,beloha,-25.17,45.05,72.75,72,0,20.76,MG,1603896443
492,leningradskiy,69.38,178.42,17.53,87,100,6.4,RU,1603896443
493,adre,13.47,22.2,92.93,18,0,8.25,TD,1603896443
494,buin,-33.73,-70.75,68.0,54,0,3.36,CL,1603896443
495,salalah,17.02,54.09,84.2,74,75,12.75,OM,1603896443
496,san carlos de bariloche,-41.15,-71.31,46.4,52,40,25.28,AR,1603896444
497,loanda,-8.84,13.23,84.2,70,40,11.41,AO,1603896428
498,rawson,-43.3,-65.1,59.31,35,60,23.09,AR,1603896444
499,ginda,30.69,78.49,52.18,44,0,4.92,IN,1603896444
500,monterey,36.25,-121.25,51.8,34,1,11.41,US,1603896444
501,smoky lake,54.12,-112.47,27.0,98,77,5.26,CA,1603896187
502,carballo,43.21,-8.69,62.6,67,75,10.29,ES,1603896444
503,kendari,-3.94,122.5,77.92,83,48,3.49,ID,1603896444
504,son la,21.32,103.9,66.61,93,100,1.52,VN,1603896444
505,emba,48.83,58.14,38.35,69,0,1.81,KZ,1603896445
506,plymouth,41.83,-70.83,50.0,93,90,6.93,US,1603896167
507,broceni,56.7,22.53,51.01,79,99,5.99,LV,1603896445
508,najran,17.49,44.13,68.54,22,0,12.17,SA,1603896445
509,prince rupert,54.32,-130.32,41.0,100,75,2.55,CA,1603896445
510,tambopata,-12.73,-69.18,77.0,78,75,3.36,PE,1603896445
511,athabasca,54.72,-113.29,27.93,97,12,3.4,CA,1603896350
512,gamba,-2.65,10.0,75.7,90,100,1.48,GA,1603896445
513,eureka,40.8,-124.16,44.6,70,1,6.93,US,1603896182
514,nichinan,31.6,131.37,65.62,80,51,3.89,JP,1603896445
515,naifaru,5.44,73.37,82.92,73,87,7.18,MV,1603896445
516,hamilton,39.18,-84.53,52.0,93,90,4.7,US,1603896445
517,krasnoselkup,65.7,82.47,0.1,90,0,14.88,RU,1603896445
518,santo augusto,-27.85,-53.78,77.09,42,0,7.47,BR,1603896446
519,taoudenni,22.68,-3.98,98.92,9,0,3.56,ML,1603896446
520,zheleznodorozhnyy,55.75,38.0,48.2,66,0,6.71,RU,1603896446
521,belyy yar,53.6,91.39,34.74,82,100,12.84,RU,1603896446
522,ducheng,23.24,111.53,70.99,90,100,2.64,CN,1603896446
523,dakar,14.69,-17.44,102.2,26,0,6.93,SN,1603896304
524,byron bay,-28.65,153.62,64.4,100,83,5.82,AU,1603896446
525,galle,6.04,80.22,80.13,84,100,5.93,LK,1603896249
526,alice springs,-23.7,133.88,66.2,17,0,4.7,AU,1603896446
527,havre-saint-pierre,50.23,-63.6,24.8,73,1,5.82,CA,1603896446
528,denpasar,-8.65,115.22,82.4,78,40,5.82,ID,1603896446
529,tura,25.52,90.22,71.8,94,1,3.04,IN,1603896188
530,markova,48.68,24.41,53.6,81,75,8.95,UA,1603896446
531,marietta,33.95,-84.55,71.6,100,90,6.93,US,1603896378
532,vysotsk,60.63,28.57,46.4,93,75,5.82,RU,1603896447
533,worland,44.02,-107.96,17.6,92,1,2.37,US,1603896447
534,phek,25.67,94.5,56.93,100,0,1.52,IN,1603896447
535,fairbanks,64.84,-147.72,21.99,93,100,4.5,US,1603896447
536,labrea,-7.26,-64.8,91.81,50,94,4.0,BR,1603896447
537,mao,39.89,4.27,68.0,56,0,6.93,ES,1603896447
538,sungairaya,0.7,108.9,80.31,86,90,6.78,ID,1603896447
539,kalmunai,7.42,81.82,81.41,70,30,2.86,LK,1603896447
540,bakchar,57.02,82.07,20.17,95,100,10.92,RU,1603896447
541,pointe-noire,-4.78,11.86,75.2,94,75,8.05,CG,1603896447
542,manjacaze,-24.71,33.88,92.55,27,0,11.63,MZ,1603896448
543,jasper,37.2,-94.35,39.0,90,87,1.01,US,1603896448
544,mount isa,-20.73,139.5,60.8,25,0,4.7,AU,1603896448
545,yauya,-8.98,-77.3,60.91,51,98,4.14,PE,1603896448
546,pacific grove,36.62,-121.92,51.8,39,1,3.36,US,1603896255
547,redmond,47.67,-122.12,48.99,95,44,3.29,US,1603896299
548,kashima,33.11,130.09,62.01,87,0,2.24,JP,1603896449
549,puerto baquerizo moreno,-0.9,-89.6,68.0,94,90,5.82,EC,1603896449
550,nikki,9.94,3.21,92.55,26,41,4.52,BJ,1603896449
551,epe,6.58,3.98,85.91,70,58,7.85,NG,1603896449
552,isangel,-19.55,169.27,72.14,77,5,10.56,VU,1603896449
553,beidao,34.57,105.89,48.45,75,9,4.5,CN,1603896450
554,shingu,33.73,135.98,58.15,78,69,6.06,JP,1603896450
555,omurtag,43.1,26.42,59.0,82,90,4.7,BG,1603896450
556,yakeshi,49.28,120.73,20.34,88,0,3.49,CN,1603896450
557,tutoia,-2.76,-42.27,87.55,58,54,14.32,BR,1603896450
558,burns lake,54.23,-125.75,33.12,94,100,2.04,CA,1603896450
559,kaili,-3.46,120.21,70.95,79,100,2.13,ID,1603896450
560,ancud,-41.87,-73.82,53.01,81,75,6.93,CL,1603896450
561,roald,62.58,6.13,50.0,61,0,5.82,NO,1603896451
562,manzhouli,49.6,117.43,28.83,86,0,2.8,CN,1603896451
563,sur,22.57,59.53,76.33,60,0,8.52,OM,1603896451
564,tikhvin,59.65,33.53,45.9,91,64,5.23,RU,1603896451
565,vao,-22.67,167.48,71.98,78,88,16.71,NC,1603896451
566,tsabong,-26.02,22.4,96.28,13,78,8.7,BW,1603896451
567,amposta,40.71,0.58,64.99,60,100,1.99,ES,1603896451
568,batemans bay,-35.72,150.18,55.99,93,100,4.5,AU,1603896451
569,college,64.86,-147.8,21.99,87,100,4.14,US,1603896451
570,obertyn,48.7,25.17,60.01,81,75,8.95,UA,1603896451
571,inirida,3.87,-67.92,88.52,63,100,1.57,CO,1603896451
572,sangmelima,2.93,11.98,80.73,67,93,1.48,CM,1603896452
573,kahului,20.89,-156.47,75.2,83,1,3.36,US,1603896452
574,bilma,18.69,12.92,91.18,11,0,5.5,NE,1603896452
575,atasu,48.68,71.64,28.2,92,99,6.51,KZ,1603896452
576,la rioja,42.25,-2.5,66.2,52,20,6.24,ES,1603896452
577,sergeyevka,53.88,67.42,30.96,94,99,11.9,KZ,1603896452
578,valdivia,-39.81,-73.25,57.92,50,52,4.72,CL,1603896452
579,balykshi,47.07,51.87,43.52,57,39,8.39,KZ,1603896452
580,noyabrsk,63.2,75.45,2.71,92,0,12.03,RU,1603896452
581,haines junction,60.75,-137.51,26.78,95,100,0.94,CA,1603896452
582,jaguarari,-10.26,-40.2,86.38,48,100,4.52,BR,1603896453
583,bahia blanca,-38.72,-62.27,69.13,24,79,14.54,AR,1603896453
584,gravdal,68.12,13.5,42.8,87,75,5.82,NO,1603896453
585,mtwara,-10.27,40.18,84.2,58,20,12.75,TZ,1603896453
586,nola,40.92,14.53,66.99,61,33,1.99,IT,1603896453
587,svetlogorsk,52.63,29.73,50.41,81,0,6.78,BY,1603896453
588,mogadishu,2.04,45.34,80.42,81,10,8.39,SO,1603896453
589,neuquen,-38.95,-68.06,62.6,29,0,12.75,AR,1603896453
590,naze,28.37,129.48,66.2,88,53,4.7,JP,1603896453
591,tairua,-37.02,175.85,59.0,88,95,3.78,NZ,1603896453
592,umm kaddadah,13.6,26.69,94.48,15,0,17.63,SD,1603896453
593,curuca,-0.73,-47.85,92.59,48,2,10.4,BR,1603896454
594,cockburn town,21.46,-71.14,82.72,77,22,19.55,TC,1603896246
595,margate,51.38,1.39,53.01,82,100,4.0,GB,1603896190
596,okato,-39.2,173.88,60.01,96,100,4.0,NZ,1603896454
597,kibala,9.11,18.35,95.0,39,20,3.36,TD,1603896454
598,poso,-1.4,120.75,79.38,77,100,4.56,ID,1603896454
